stop_id,stop_name,stop_desc,stop_lat,stop_lon,stop_url,location_type,parent_station
1051,Gara,Piata 1 Decembrie 1918,45.799547822916,24.161706268787,https://tursib.ro/statii/1051,0,
1052,Promenada Mall Gara,Strada Lector,45.796475982105,24.159790836275,https://tursib.ro/statii/1052,0,
1054,Casa  Armatei,Bld. Victoriei,45.791303855228,24.146410301328,https://tursib.ro/statii/1054,0,
1056,Regina Maria,,45.78939010507,24.146484732628,https://tursib.ro/statii/1056,0,
1081,Hermann Oberth,,45.795109184664,24.159976914525,https://tursib.ro/statii/1081,0,
1082,Policlinica Stomatologica,Strada Hermann Oberth,45.794600513331,24.160074479878,https://tursib.ro/statii/1082,0,
1111,Alba Iulia,,45.792659875527,24.140741117299,https://tursib.ro/statii/1111,0,
1114,Politie,Bulevardul General Vasile Milea,45.788415670998,24.152517020702,https://tursib.ro/statii/1114,0,
1115,A. Saguna,,45.792131427785,24.146915562451,https://tursib.ro/statii/1115,0,
1116,Colegiul National Octavian Goga,,45.793700041482,24.144588746131,https://tursib.ro/statii/1116,0,
1121,Abatorului,,45.802359116519,24.156602025032,https://tursib.ro/statii/1121,0,
1122,Teclu,Strada Nicolae Teclu,45.801992271496,24.155843462795,https://tursib.ro/statii/1122,0,
1123,BRD,Strada General Magheru,45.799234019756,24.158211350441,https://tursib.ro/statii/1123,0,
1124,Aida,Bulevardul General Vasile Milea,45.78868160809,24.151610266417,https://tursib.ro/statii/1124,0,
1125,Târgu Fânului,,45.803410904724,24.151521921158,https://tursib.ro/statii/1125,0,
1172,Cibinului,,45.8039059395,24.149195104837,https://tursib.ro/statii/1172,0,
1173,Piata Cibin 1,Strada Malului,45.799371579124,24.144030679017,https://tursib.ro/statii/1173,0,
1174,Morilor,Strada Malului,45.796579536625,24.140976816416,https://tursib.ro/statii/1174,0,
1210,Constitutiei 2,,45.797270752273,24.158507734537,https://tursib.ro/statii/1210,0,
1211,Constitutiei 1,,45.797386460514,24.158300533891,https://tursib.ro/statii/1211,0,
1212,Zidul Cetății,Nufarul,45.792473674539,24.151112884283,https://tursib.ro/statii/1212,0,
1213,Parcul Tineretului,,45.796098929823,24.158272370696,https://tursib.ro/statii/1213,0,
1214,Sala Thalia,Muzeul de Stiinte Naturale,45.794395325316,24.154836041853,https://tursib.ro/statii/1214,0,
1215,Spitalul Judetean,,45.79522793631,24.156517535448,https://tursib.ro/statii/1215,0,
1216,Teatru,,45.791681173731,24.1497194767,https://tursib.ro/statii/1216,0,
1217,Spitalul C.F.,,45.791780178504,24.155905991793,https://tursib.ro/statii/1217,0,
1218,Piata Habermann,,45.790423669235,24.153011217713,https://tursib.ro/statii/1218,0,
1221,Electrica,,45.796857005689,24.160107672215,https://tursib.ro/statii/1221,0,
1301,Parcul Astra,,45.792711656357,24.148897379637,https://tursib.ro/statii/1301,0,
1302,Primarie,,45.796939872129,24.149985350668,https://tursib.ro/statii/1302,0,
1303,Teatru Gong,,45.796708804187,24.147169031203,https://tursib.ro/statii/1303,0,
1304,Turnului,,45.798455640043,24.148105457425,https://tursib.ro/statii/1304,0,
1305,Podul Minciunilor,,45.799597493645,24.150525145233,https://tursib.ro/statii/1305,0,
1306,Ocnei,,45.802116267487,24.150770232081,https://tursib.ro/statii/1306,0,
1901,Frunzei 2,Calea Turnisorului,45.795906311925,24.124117456377,https://tursib.ro/statii/1901,0,
1902,Transcom 2,,45.798211605246,24.124812483788,https://tursib.ro/statii/1902,0,
1903,Frigoriferului 2,,45.80163453976,24.124890267849,https://tursib.ro/statii/1903,0,
1904,Magnolia 1,,45.807609912806,24.107859581709,https://tursib.ro/statii/1904,0,
1906,Frigoriferului 1,,45.801711205101,24.12483394146,https://tursib.ro/statii/1906,0,
1907,Transcom 1,,45.797616240005,24.125222358853,https://tursib.ro/statii/1907,0,
1908,Frunzei 1,Calea Turnisorului,45.795705745494,24.123745635152,https://tursib.ro/statii/1908,0,
1909,Kastani,,45.805766604528,24.122964441776,https://tursib.ro/statii/1909,0,
1910,West Side,,45.80596339526,24.122253656387,https://tursib.ro/statii/1910,0,
1911,Frigoriferului 3,,45.803955022028,24.125761985779,https://tursib.ro/statii/1911,0,
1912,Frigoriferului 4,,45.803584798461,24.125719070435,https://tursib.ro/statii/1912,0,
2019,Lidl Arhitectilor 1,,45.762043024427,24.145232643932,https://tursib.ro/statii/2019,0,
2020,Neveon,,45.779709534307,24.194463081658,https://tursib.ro/statii/2020,0,
2021,Greiner 1,,45.780860774195,24.19317914173,https://tursib.ro/statii/2021,0,
2022,Greiner 2,,45.780574223258,24.193442584947,https://tursib.ro/statii/2022,0,
2023,Retrasib 1,,45.783456851565,24.19294025749,https://tursib.ro/statii/2023,0,
2024,Retrasib 2,,45.78373052808,24.192908741534,https://tursib.ro/statii/2024,0,
2081,Ceferistilor 1,Strada Stefan Cel Mare,45.789625294619,24.170101583004,https://tursib.ro/statii/2081,0,
2082,Ceferistilor 2,Strada Stefan Cel Mare,45.789684676317,24.170235693455,https://tursib.ro/statii/2082,0,
2083,Trei Stejari 1,Strada Stefan Cel Mare,45.789933424157,24.165039416403,https://tursib.ro/statii/2083,0,
2084,Viaduct Vasile Aaron 2,,45.788665359663,24.175320491195,https://tursib.ro/statii/2084,0,
2085,Sembraz,,45.795176508463,24.183943122625,https://tursib.ro/statii/2085,0,
2086,Trei Stejari 2,Strada Stefan Cel Mare,45.789966154053,24.165094569325,https://tursib.ro/statii/2086,0,
2087,Viaduct Vasile Aaron,,45.788607379623,24.174951016903,https://tursib.ro/statii/2087,0,
2088,Henri Coanda,,45.795917999924,24.180496484041,https://tursib.ro/statii/2088,0,
2090,Strungului,,45.799990884257,24.168103337288,https://tursib.ro/statii/2090,0,
2091,Compa 1,,45.797513622425,24.173570349813,https://tursib.ro/statii/2091,0,
2092,Compa II/1,,45.7966622866,24.177142381668,https://tursib.ro/statii/2092,0,
2093,Compa II/2,,45.796573458939,24.177621491253,https://tursib.ro/statii/2093,0,
2094,Otelarilor,,45.799685147765,24.172646999359,https://tursib.ro/statii/2094,0,
2095,Comtram 1,,45.791587195012,24.182502776384,https://tursib.ro/statii/2095,0,
2096,Comtram 2,,45.791444473296,24.182267244905,https://tursib.ro/statii/2096,0,
2097,Concefa,,45.795168092992,24.18429851532,https://tursib.ro/statii/2097,0,
2098,Lazaret 1,,45.80101466855,24.169657677412,https://tursib.ro/statii/2098,0,
2099,Piata Vasile Aaron 1,Strada Semaforului,45.786099685194,24.174541980028,https://tursib.ro/statii/2099,0,
2111,Moldoveanu,Bulevardul General Vasile Milea,45.78446468997,24.161754883826,https://tursib.ro/statii/2111,0,
2121,Stefan Cel Mare 2,,45.788259498118,24.182142019272,https://tursib.ro/statii/2121,0,
2122,Stefan Cel Mare 1,,45.788303451009,24.182482659817,https://tursib.ro/statii/2122,0,
2123,Narcisa,Strada Semaforului,45.783820545265,24.170331582427,https://tursib.ro/statii/2123,0,
2124,CGS,,45.788459156183,24.188889116049,https://tursib.ro/statii/2124,0,
2125,Stefan Cel Mare 3,,45.788388551188,24.188112616539,https://tursib.ro/statii/2125,0,
2126,Irmes 1,,45.7885191236,24.191442579031,https://tursib.ro/statii/2126,0,
2127,Liceul Energetic,Strada Semaforului,45.783278335659,24.169196002185,https://tursib.ro/statii/2127,0,
2128,Piata Vasile Aaron 2,Strada Semaforului,45.78683054271,24.175559878349,https://tursib.ro/statii/2128,0,
2129,Irmes 2,,45.788473651237,24.191121384502,https://tursib.ro/statii/2129,0,
2140,Lazaret 2,,45.801125577386,24.168769530952,https://tursib.ro/statii/2140,0,
2401,VGP PARK,,45.824957906958,24.1519510746,https://tursib.ro/statii/2401,0,
2402,Telescaun,,45.651501,23.929204,https://tursib.ro/statii/2402,0,
2403,Odu 1,,45.796727387836,24.109479803592,https://tursib.ro/statii/2403,0,
2404,Cindrel,,45.654383372408,23.933285661042,https://tursib.ro/statii/2404,0,
2405,Moara de scoarță 1,,45.806138,24.156255,https://tursib.ro/statii/2405,0,
2407,Calea Turnisorului 1,,45.800183488035,24.131163954735,https://tursib.ro/statii/2407,0,
2408,Bruxelles 2,,45.799805876481,24.107767883688,https://tursib.ro/statii/2408,0,
2409,Magnolia 2,,45.807629544518,24.10527812317,https://tursib.ro/statii/2409,0,
2410,Penny Arhitectilor,,45.772085170613,24.148163124919,https://tursib.ro/statii/2410,0,
2411,Valea Sapunului 1,Shopping City,45.77910344904,24.170316159725,https://tursib.ro/statii/2411,0,
2413,Lidl Arhitectilor 2,,45.761202,24.145017,https://tursib.ro/statii/2413,0,
2414,Neculce 2,,45.795458893511,24.139902591705,https://tursib.ro/statii/2414,0,
2415,Kaufland Arhitectilor 1,,45.770613821682,24.146664105356,https://tursib.ro/statii/2415,0,
2416,Cartierul Primăverii 2,,45.753647767107,24.143570009619,https://tursib.ro/statii/2416,0,
2417,Aeroport Terminal,,45.78945650063,24.093851745129,https://tursib.ro/statii/2417,0,
2418,Viitorului Blocuri 1,,45.80708826766,24.160910658538,https://tursib.ro/statii/2418,0,
2420,Calea Turnisorului 2,,45.799700341132,24.130539335311,https://tursib.ro/statii/2420,0,
2421,Cartierul Primăverii 1,,45.754263252467,24.143781065941,https://tursib.ro/statii/2421,0,
2422,Viitorului Blocuri 2,,45.806565215337,24.161466211081,https://tursib.ro/statii/2422,0,
2423,Tractorului,,45.808813978292,24.131529405713,https://tursib.ro/statii/2423,0,
2424,Zavoi 4,,45.776704296871,24.107025749981,https://tursib.ro/statii/2424,0,
2425,Moara de scoarță 2,,45.80494484379,24.152945503593,https://tursib.ro/statii/2425,0,
2426,Kogălniceanu 3,,45.801130602755,24.13487110287,https://tursib.ro/statii/2426,0,
2427,Odu 2,,45.796942092808,24.109316021204,https://tursib.ro/statii/2427,0,
2506,Poplaca Zona Industrială,,45.734305062457,24.053477793932,https://tursib.ro/statii/2506,0,
2507,Poplaca Școala 2,,45.728968723153,24.050050936639,https://tursib.ro/statii/2507,0,
2508,Poplaca,,45.727912253799,24.04831957072,https://tursib.ro/statii/2508,0,
2509,Poplaca Școala 1,,45.728815660377,24.050012379885,https://tursib.ro/statii/2509,0,
2510,Parc Reșița,,45.807940612733,24.165961258113,https://tursib.ro/statii/2510,0,
2511,Vadului,,45.808389566875,24.16943103075,https://tursib.ro/statii/2511,0,
2512,Cristian,,45.773645111219,24.023110661656,https://tursib.ro/statii/2512,0,
2513,Cristian - Bariera 1,,45.77737822119,24.027581065893,https://tursib.ro/statii/2513,0,
2514,Cristian - Primărie 1,,45.780701891177,24.028398469091,https://tursib.ro/statii/2514,0,
2515,Cristian - Posta 1,,45.785389860468,24.029186367989,https://tursib.ro/statii/2515,0,
2516,Cristian 1,,45.788014951083,24.030944555998,https://tursib.ro/statii/2516,0,
2517,Cristian 2,,45.788024770392,24.03080239892,https://tursib.ro/statii/2517,0,
2518,Cristian - Posta 2,,45.7854032,24.0289413,https://tursib.ro/statii/2518,0,
2519,Cristian - Primărie 2,,45.780720597074,24.028060510755,https://tursib.ro/statii/2519,0,
2520,Cristian - Bariera 2,,45.777344080876,24.027443602681,https://tursib.ro/statii/2520,0,
2521,Roșia,,45.817042152984,24.309823215008,https://tursib.ro/statii/2521,0,
2522,Nou,,45.825748999916,24.281002879143,https://tursib.ro/statii/2522,0,
2523,Daia 1,,45.8012215,24.284074,https://tursib.ro/statii/2523,0,
2524,Daia DJ106 - 1,,45.794878693542,24.257013201714,https://tursib.ro/statii/2524,0,
2525,Daia DJ106 - 2,,45.794817447262,24.256795942783,https://tursib.ro/statii/2525,0,
2526,Daia 2,,45.8011264,24.2841045,https://tursib.ro/statii/2526,0,
2527,Cornățel,,45.799310688401,24.354523569346,https://tursib.ro/statii/2527,0,
2529,Cașolț 1,,45.781582932144,24.287620559335,https://tursib.ro/statii/2529,0,
2530,Cașolț 3,,45.778802274589,24.281046465039,https://tursib.ro/statii/2530,0,
2531,Cașolț 2,,45.781778639195,24.287672191858,https://tursib.ro/statii/2531,0,
2532,Hamba Parc,,45.861518665894,24.192805811763,https://tursib.ro/statii/2532,0,
2533,Sura Mare 1,,45.854662,24.170909,https://tursib.ro/statii/2533,0,
2534,Sura Mare 2,,45.854564592625,24.170792922378,https://tursib.ro/statii/2534,0,
2535,Sura Mare Primarie 1,,45.852607,24.165994,https://tursib.ro/statii/2535,0,
2536,Sura Mare Primarie 2,,45.852618,24.166394,https://tursib.ro/statii/2536,0,
2537,Sura Mare Profi 1,,45.849153,24.155231,https://tursib.ro/statii/2537,0,
2538,Sura Mare Profi 2,,45.849413,24.155621,https://tursib.ro/statii/2538,0,
2539,Magnolia Sport,,45.84412,24.150718,https://tursib.ro/statii/2539,0,
2540,Next Motor Service,,45.844005964348,24.150867462158,https://tursib.ro/statii/2540,0,
2541,Dealul Viilor,,45.865450641034,24.162974283099,https://tursib.ro/statii/2541,0,
2542,Viile Sibiului 6,,45.829627202023,24.15281072259,https://tursib.ro/statii/2542,0,
2543,Viile Sibiului 7,,45.832541,24.156694,https://tursib.ro/statii/2543,0,
2544,Viile Sibiului 8,,45.835755,24.1603,https://tursib.ro/statii/2544,0,
2545,Viile Sibiului 9,,45.839039362465,24.155092947185,https://tursib.ro/statii/2545,0,
2547,Piata Cibin 4,,45.800566,24.144944,https://tursib.ro/statii/2547,0,
2548,IFM-Bilstein Sosire,,45.790815,24.077803,https://tursib.ro/statii/2548,0,
2549,Ocna Sibiului,,45.878010738886,24.037087149918,https://tursib.ro/statii/2549,0,
2550,Str. Ghe. Doja,,45.879317,24.04218,https://tursib.ro/statii/2550,0,
2551,Str. Mihai Viteazul,,45.879454,24.042254,https://tursib.ro/statii/2551,0,
2552,Ocna Biserica 1,,45.880560509492,24.047323465347,https://tursib.ro/statii/2552,0,
2553,Ocna Biserica 2,,45.880678378701,24.047491103411,https://tursib.ro/statii/2553,0,
2554,Str. Olarilor,,45.881288026939,24.050929695368,https://tursib.ro/statii/2554,0,
2555,Str. George Enescu,,45.881124645602,24.050027132034,https://tursib.ro/statii/2555,0,
2556,Str. de Mijloc 1,,45.882329,24.055117,https://tursib.ro/statii/2556,0,
2557,Str. de Mijloc 2,,45.882351,24.054979,https://tursib.ro/statii/2557,0,
2558,Ocna Scoala,,45.880540203286,24.056445658207,https://tursib.ro/statii/2558,0,
2559,Str. de Jos 1,,45.879896936186,24.05943363905,https://tursib.ro/statii/2559,0,
2560,Str. de Jos 2,,45.879965091108,24.059612005949,https://tursib.ro/statii/2560,0,
2561,Centrul de Informare ,,45.8778,24.064408,https://tursib.ro/statii/2561,0,
2562,La Doi Pasi,,45.878300406561,24.064026921988,https://tursib.ro/statii/2562,0,
2563,Ocna Lacuri 1,,45.874199,24.063258,https://tursib.ro/statii/2563,0,
2564,Ocna Lacuri 2,,45.875075,24.064209,https://tursib.ro/statii/2564,0,
2565,Ocna Ferma 1,,45.865057712851,24.060282558203,https://tursib.ro/statii/2565,0,
2566,Ocna Ferma 2,,45.865201530024,24.060557484627,https://tursib.ro/statii/2566,0,
2567,Polycontact 1,,45.858628518373,24.056286066771,https://tursib.ro/statii/2567,0,
2568,Polycontact 2,,45.858548,24.056383,https://tursib.ro/statii/2568,0,
2569,Valletta Lane 1,,45.849672,24.052519,https://tursib.ro/statii/2569,0,
2570,Valletta Lane 2,,45.849968,24.052756,https://tursib.ro/statii/2570,0,
2571,EDEN 1,,45.844967,24.050627,https://tursib.ro/statii/2571,0,
2572,EDEN 2,,45.844871056957,24.050713777542,https://tursib.ro/statii/2572,0,
2573,Calea Ocnei 1,,45.840545,24.049553,https://tursib.ro/statii/2573,0,
2574,Calea Ocnei 2,,45.84061459685,24.049687832594,https://tursib.ro/statii/2574,0,
2575,Piata Sura Mica 1,,45.835923331543,24.049781709909,https://tursib.ro/statii/2575,0,
2576,Piata Sura Mica 2,,45.836350336203,24.049040079117,https://tursib.ro/statii/2576,0,
2577,Parc Central Sura Mica 1,,45.833515412426,24.054337441921,https://tursib.ro/statii/2577,0,
2578,Parc Central Sura Mica 2,,45.833739,24.054195,https://tursib.ro/statii/2578,0,
2579,Blocuri Sos. Sibiului 1,,45.826829316617,24.066039919853,https://tursib.ro/statii/2579,0,
2580,Blocuri Sos. Sibiului 2,,45.826951738727,24.066051989794,https://tursib.ro/statii/2580,0,
2581,THIMM 1,,45.837247315626,24.062836021185,https://tursib.ro/statii/2581,0,
2582,THIMM 2,,45.837179108324,24.063603132963,https://tursib.ro/statii/2582,0,
2583,Rusciori 1,,45.814346,24.033773,https://tursib.ro/statii/2583,0,
2584,Rusciori Scoala,,45.816429,24.028624,https://tursib.ro/statii/2584,0,
2585,Rusciori Drumul Magului,,45.814578,24.02269,https://tursib.ro/statii/2585,0,
2586,Rusciori 2,,45.814215593069,24.034022390842,https://tursib.ro/statii/2586,0,
2587,Rusciori Universitate 1,,45.812415268812,24.050456285477,https://tursib.ro/statii/2587,0,
2588,Rusciori Universitate 2,,45.812569504478,24.050122350454,https://tursib.ro/statii/2588,0,
2589,Bungard Centru,,45.775971903538,24.220509678125,https://tursib.ro/statii/2589,0,
2590,Baza Sportiva 1,,45.773732,24.209911,https://tursib.ro/statii/2590,0,
2591,Baza Sportiva 2,,45.773898139973,24.210301190615,https://tursib.ro/statii/2591,0,
2592,Șelimbăr - 1 Decembrie,,45.766606,24.199616,https://tursib.ro/statii/2592,0,
2593,Șelimbăr - Str. Gării,,45.766819449612,24.200468212366,https://tursib.ro/statii/2593,0,
2594,Șelimbăr - Școala,,45.767731581848,24.19486373663,https://tursib.ro/statii/2594,0,
2595,Șelimbăr - Primărie,,45.767749,24.194369,https://tursib.ro/statii/2595,0,
2596,Șelimbăr - Grădinița 1,,45.769297607947,24.188371449709,https://tursib.ro/statii/2596,0,
2597,Șelimbăr - Grădinița 2,,45.769185,24.188277,https://tursib.ro/statii/2597,0,
2598,Șelimbăr - Crinului 1,,45.77098239338,24.18361723423,https://tursib.ro/statii/2598,0,
2599,Șelimbăr - Crinului 2,,45.770761,24.18385,https://tursib.ro/statii/2599,0,
2600,Brana - Str. Noua,,45.773524910466,24.18004989624,https://tursib.ro/statii/2600,0,
2601,Brana - Profi,,45.775247,24.180246,https://tursib.ro/statii/2601,0,
2602,Brana - Biserica,,45.778264,24.181071,https://tursib.ro/statii/2602,0,
2603,Brana - V.Dobrian,,45.781195,24.181625,https://tursib.ro/statii/2603,0,
2604,Brana - Cosbuc,,45.782420001694,24.182018637657,https://tursib.ro/statii/2604,0,
2605,Veștem - Școală,,45.717138589559,24.238172024488,https://tursib.ro/statii/2605,0,
2606,Veștem - Vulpari,,45.719557157008,24.232613146305,https://tursib.ro/statii/2606,0,
2607,Veștem - Gară,,45.722938106995,24.227256774902,https://tursib.ro/statii/2607,0,
2608,Selimbar - Parc Industrial,,45.734640643634,24.210687428713,https://tursib.ro/statii/2608,0,
2609,Mohu - PEFOC,,45.743755324193,24.215694442391,https://tursib.ro/statii/2609,0,
2610,Mohu - Centru,,45.742970554264,24.224547743797,https://tursib.ro/statii/2610,0,
2611,Mohu - Str. Garii,,45.743952,24.212344,https://tursib.ro/statii/2611,0,
2612,Șelimbăr - Str. T.Vladimirescu,,45.761351021073,24.197480231524,https://tursib.ro/statii/2612,0,
2613,Șelimbăr - Sevisului 1,,45.765223,24.196229,https://tursib.ro/statii/2613,0,
2614,Șelimbăr - Lidl,,45.776674,24.15963,https://tursib.ro/statii/2614,0,
2615,Strada Nicolae Porumbescu,,45.757880700062,24.144699722529,https://tursib.ro/statii/2615,0,
2616,Strada Irina Rosetti,,45.766346772142,24.146171249449,https://tursib.ro/statii/2616,0,
2617,Strada Dorului,,45.757195077948,24.144454300404,https://tursib.ro/statii/2617,0,
2618,Shopping City 1,,45.777488592475,24.171147979796,https://tursib.ro/statii/2618,0,
2619,Șelimbăr - D-na Stanca,,45.77717,24.164911,https://tursib.ro/statii/2619,0,
2620,Șelimbăr - SIFEE,,45.776004,24.173762,https://tursib.ro/statii/2620,0,
2621,Șelimbăr - Unimat,,45.773653,24.177941,https://tursib.ro/statii/2621,0,
2622,Șelimbăr - Str. Dealului,,45.764242,24.196407,https://tursib.ro/statii/2622,0,
2623,Șelimbăr - Dracula,,45.761005,24.197453,https://tursib.ro/statii/2623,0,
2624,Șelimbăr - Post Control,,45.702894,24.247105,https://tursib.ro/statii/2624,0,
2625,Veștem - Verzariei,,45.712569898756,24.243273586035,https://tursib.ro/statii/2625,0,
2626,Șelimbăr - Promenada,,45.774483703037,24.17672932148,https://tursib.ro/statii/2626,0,
2627,Carpenului,,45.744273350535,24.192338436842,https://tursib.ro/statii/2627,0,
2628,Cartier Tineretului,,45.744116,24.192024,https://tursib.ro/statii/2628,0,
2629,Schuster,,45.74994,24.198064,https://tursib.ro/statii/2629,0,
2630,Stejarului,,45.750066,24.198054,https://tursib.ro/statii/2630,0,
2631,Sadu Moara,,45.669829553129,24.178022146225,https://tursib.ro/statii/2631,0,
2632,Sadu Piata,,45.672082424015,24.181791990995,https://tursib.ro/statii/2632,0,
2633,Sadu Str. Caminului,,45.672096480745,24.181235432625,https://tursib.ro/statii/2633,0,
2634,Sadu 1,,45.673886342186,24.181172400713,https://tursib.ro/statii/2634,0,
2635,Sadu 2,,45.673784,24.18114,https://tursib.ro/statii/2635,0,
2636,Tocile Tineretului 1,,45.680695726353,24.162898510695,https://tursib.ro/statii/2636,0,
2637,Tocile Tineretului 2,,45.681434054802,24.161896705627,https://tursib.ro/statii/2637,0,
2638,Tocile Str. Liliacului,,45.688010182486,24.155010133982,https://tursib.ro/statii/2638,0,
2639,Tocile Troita,,45.688921,24.153503,https://tursib.ro/statii/2639,0,
2640,Tocile Str. Dealul Viilor,,45.697279,24.153307,https://tursib.ro/statii/2640,0,
2641,Tocile Parc,,45.696496,24.153293,https://tursib.ro/statii/2641,0,
2642,Str. Cetatii 1,,45.70905814858,24.153131246567,https://tursib.ro/statii/2642,0,
2643,Cisnadie Stadion,,45.710028350154,24.152329266071,https://tursib.ro/statii/2643,0,
2644,Str. Unirii 1,,45.712339534707,24.153501391411,https://tursib.ro/statii/2644,0,
2645,Str. Unirii 2,,45.712338,24.153286,https://tursib.ro/statii/2645,0,
2646,Str. Targului 1,,45.714744263853,24.156257361174,https://tursib.ro/statii/2646,0,
2647,Str. Târgului 2,,45.71512,24.155711,https://tursib.ro/statii/2647,0,
2648,Str. Selimbarului 1,,45.719018770292,24.158749133349,https://tursib.ro/statii/2648,0,
2649,Str. Selimbarului 2,,45.719201,24.15886,https://tursib.ro/statii/2649,0,
2650,Swoboda 1,,45.724757237461,24.168486893177,https://tursib.ro/statii/2650,0,
2651,Swoboda 2,,45.725027,24.168498,https://tursib.ro/statii/2651,0,
2652,Soma 1,,45.732092,24.177721,https://tursib.ro/statii/2652,0,
2653,Soma 2,,45.732484,24.177875,https://tursib.ro/statii/2653,0,
2654,Str. Cetatii 2,,45.712317996556,24.151383787394,https://tursib.ro/statii/2654,0,
2655,Str. Bailor 1,,45.710926661258,24.14702385664,https://tursib.ro/statii/2655,0,
2656,Str. Bailor 2,,45.71091,24.14724,https://tursib.ro/statii/2656,0,
2657,Str. Magurii 1,,45.710437,24.143771,https://tursib.ro/statii/2657,0,
2658,Scoala Generala Nr.3,,45.710064,24.143037,https://tursib.ro/statii/2658,0,
2659,Cisnadie Parc,,45.707409,24.134531,https://tursib.ro/statii/2659,0,
2670,Sala Polivalenta,,45.707271,24.134491,https://tursib.ro/statii/2670,0,
2671,Piata Gozelinus 1,,45.704777,24.113095,https://tursib.ro/statii/2671,0,
2672,Piata Gozelinus 2,,45.704734,24.112165,https://tursib.ro/statii/2672,0,
2673,Strada Marului,,45.711344088896,24.105752706528,https://tursib.ro/statii/2673,0,
2674,Strada Ciresilor,,45.710824,24.105906,https://tursib.ro/statii/2674,0,
2675,Strada Sibiului 1,,45.718408,24.155803,https://tursib.ro/statii/2675,0,
2676,Strada Sibiului 2,,45.718535622319,24.155728965998,https://tursib.ro/statii/2676,0,
2677,Uzina de apa 1,,45.735583723593,24.155781269074,https://tursib.ro/statii/2677,0,
2678,Uzina de apa 2,,45.735045491324,24.1561165452,https://tursib.ro/statii/2678,0,
2679,Sevis 1,,45.742903,24.14786,https://tursib.ro/statii/2679,0,
2680,Sevis 2,,45.744082,24.14635,https://tursib.ro/statii/2680,0,
2681,Str. Magurii 2,,45.708454,24.138221,https://tursib.ro/statii/2681,0,
2682,Str. Izvorului,,45.721572,24.158362,https://tursib.ro/statii/2682,0,
2683,Versailles,,45.735369,24.10819,https://tursib.ro/statii/2683,0,
3010,Calea Surii Mari 1,,45.81957999926,24.150434285402,https://tursib.ro/statii/3010,0,
3012,Calea Surii Mari 2,,45.818805642444,24.150255080313,https://tursib.ro/statii/3012,0,
3013,Viile Sibiului 3,,45.835621296181,24.160108342767,https://tursib.ro/statii/3013,0,
3014,Viile Sibiului 4,,45.83276881487,24.156918525696,https://tursib.ro/statii/3014,0,
3015,Viile Sibiului 5,,45.829687942799,24.152738302946,https://tursib.ro/statii/3015,0,
3016,Hornbach 1,,45.82176690327,24.149370957166,https://tursib.ro/statii/3016,0,
3017,Hornbach,,45.822919377285,24.148655142635,https://tursib.ro/statii/3017,0,
3021,Scandia 1,,45.795190534244,24.203159809113,https://tursib.ro/statii/3021,0,
3022,Scandia 2,,45.795385492237,24.202885553241,https://tursib.ro/statii/3022,0,
3041,Piata Tiglari 1,,45.813194855619,24.136787876487,https://tursib.ro/statii/3041,0,
3042,Alimentara Tiglari 1,,45.80964117396,24.140408523381,https://tursib.ro/statii/3042,0,
3043,Alimentara Tiglari 2,,45.809599691774,24.140504412353,https://tursib.ro/statii/3043,0,
3044,Bariera Tiglari 1,,45.81084402705,24.13782119751,https://tursib.ro/statii/3044,0,
3045,Bariera Tiglari 2,,45.81058193489,24.138469286263,https://tursib.ro/statii/3045,0,
3046,Piata Tiglari 2,,45.813339741653,24.135761260986,https://tursib.ro/statii/3046,0,
3048,Lisabona 1,,45.814516576182,24.129946231842,https://tursib.ro/statii/3048,0,
3049,Landshut,,45.815009175467,24.135120213032,https://tursib.ro/statii/3049,0,
3050,Lisabona 2,,45.81496874884,24.131545163691,https://tursib.ro/statii/3050,0,
3051,Londra,,45.816566980345,24.128446374089,https://tursib.ro/statii/3051,0,
3052,Deventer,,45.814581072351,24.128629267216,https://tursib.ro/statii/3052,0,
3053,Facultatea de Drept,,45.781782614122,24.147101975977,https://tursib.ro/statii/3053,0,
3054,Ilarie Chendi,,45.778819110471,24.144815057516,https://tursib.ro/statii/3054,0,
3055,Agentia Tursib 2,,45.774073996619,24.141302704811,https://tursib.ro/statii/3055,0,
3056,Bruxelles 1,,45.799460402325,24.107908196747,https://tursib.ro/statii/3056,0,
3071,Gladiolelor,,45.80559669083,24.148688837886,https://tursib.ro/statii/3071,0,
3072,Viile Sibiului 1,,45.838994164913,24.151714034379,https://tursib.ro/statii/3072,0,
3101,Alecu Russo 1,,45.805646239307,24.171926826239,https://tursib.ro/statii/3101,0,
3102,Alecu Russo 2,,45.806060271203,24.17239503935,https://tursib.ro/statii/3102,0,
3103,Alimentara Gusterita 1,,45.81079132828,24.17779315263,https://tursib.ro/statii/3103,0,
3104,Alimentara Gusterita 2,,45.810779993948,24.177811760455,https://tursib.ro/statii/3104,0,
3105,Calea Gusteritei 1,,45.80214969143,24.169596657157,https://tursib.ro/statii/3105,0,
3106,Calea Gusteritei 2,,45.801945407717,24.169533960521,https://tursib.ro/statii/3106,0,
3107,Carpenului 2,,45.80467021968,24.189735017717,https://tursib.ro/statii/3107,0,
3110,Carpenului 1,,45.804495160711,24.189740717411,https://tursib.ro/statii/3110,0,
3111,Mr. Octavian Nita,,45.811689888074,24.18096318841,https://tursib.ro/statii/3111,0,
3112,Viile Sibiului 2,,45.838789287955,24.155351947993,https://tursib.ro/statii/3112,0,
3121,Liceul Independenta,Strada Raului,45.804994626568,24.150540232658,https://tursib.ro/statii/3121,0,
3122,Rusciorului 1,,45.808713484692,24.149518311024,https://tursib.ro/statii/3122,0,
3123,Strada Lunga,,45.807474827749,24.145831614733,https://tursib.ro/statii/3123,0,
3173,Flaro,Strada Raului,45.803179513022,24.146537035704,https://tursib.ro/statii/3173,0,
3174,Obor 2,,45.813797415463,24.149380847812,https://tursib.ro/statii/3174,0,
3175,Rusciorului 2,,45.805979404927,24.151851749048,https://tursib.ro/statii/3175,0,
3176,Obor 1,,45.81470048354,24.149008356035,https://tursib.ro/statii/3176,0,
3177,Piata Cibin 3,Strada Lunga,45.801113539873,24.14371971041,https://tursib.ro/statii/3177,0,
3178,Gaz Metan,,45.808723300354,24.149682596326,https://tursib.ro/statii/3178,0,
3179,Terezian,Strada Lunga,45.808723300354,24.146503843367,https://tursib.ro/statii/3179,0,
3180,General Balan,Strada Lunga,45.804196226968,24.144273251295,https://tursib.ro/statii/3180,0,
3181,Pod Gușterița 1,,45.807861852575,24.174048453569,https://tursib.ro/statii/3181,0,
3182,Pod Gușterița 2,,45.808148730655,24.174383478239,https://tursib.ro/statii/3182,0,
3183,Reșița 1,,45.807725365866,24.167576283217,https://tursib.ro/statii/3183,0,
3184,Smardan 1,,45.809095125704,24.183120019734,https://tursib.ro/statii/3184,0,
3185,Smardan 2,,45.809217119402,24.182741492987,https://tursib.ro/statii/3185,0,
3186,Tăbăcărie 2,,45.798756708321,24.197364896536,https://tursib.ro/statii/3186,0,
3187,Tăbăcărie 1,,45.798876620932,24.197117462754,https://tursib.ro/statii/3187,0,
3190,Reșița 2,,45.807923084517,24.164921566844,https://tursib.ro/statii/3190,0,
3191,Reșița 3,,45.808865393553,24.169211089611,https://tursib.ro/statii/3191,0,
3221,Treboniu Laurian,,45.800287970632,24.166590403765,https://tursib.ro/statii/3221,0,
3241,Viilor 1,,45.807363580985,24.186318218708,https://tursib.ro/statii/3241,0,
3242,Viilor 2,,45.807376902563,24.1862116009,https://tursib.ro/statii/3242,0,
4037,Piata Cluj 2,Str. Kiev,45.802050821946,24.137612991035,https://tursib.ro/statii/4037,0,
4038,Piata Cluj 1,Str. Kiev,45.802121877101,24.1376471892,https://tursib.ro/statii/4038,0,
4039,Kogălniceanu 2,,45.80034757471,24.136221259832,https://tursib.ro/statii/4039,0,
4040,Kogălniceanu 1,,45.79979617612,24.137007817626,https://tursib.ro/statii/4040,0,
4041,Câmpului 1,,45.806225859728,24.136481434107,https://tursib.ro/statii/4041,0,
4042,Câmpului 2,,45.806092173618,24.136329889298,https://tursib.ro/statii/4042,0,
4045,Paris 1,,45.80416444033,24.134025871754,https://tursib.ro/statii/4045,0,
4046,Kiev,,45.800813769897,24.136152947322,https://tursib.ro/statii/4046,0,
4048,Parcul Reconstructiei,,45.800983347575,24.143341854215,https://tursib.ro/statii/4048,0,
4049,Parcul Reconstructiei 2,,45.800346406003,24.142393022776,https://tursib.ro/statii/4049,0,
4050,Paris 2,,45.804645795598,24.133950937539,https://tursib.ro/statii/4050,0,
4075,Zavoi,,45.774927358143,24.106048252434,https://tursib.ro/statii/4075,0,
4076,Stavilarului 1,,45.781504017816,24.109944747761,https://tursib.ro/statii/4076,0,
4077,Stavilarului 2,,45.781584335064,24.109967127442,https://tursib.ro/statii/4077,0,
4078,Zavoi 1,,45.775801665141,24.106624424458,https://tursib.ro/statii/4078,0,
4079,Zavoi 3,,45.780136034806,24.109108150005,https://tursib.ro/statii/4079,0,
4080,Zavoi 2,,45.779878357811,24.108934476972,https://tursib.ro/statii/4080,0,
4081,Asachi 1,,45.783916232204,24.112685127184,https://tursib.ro/statii/4081,0,
4082,Asachi 2,,45.7840894269,24.113081172109,https://tursib.ro/statii/4082,0,
4083,Bieltz,,45.792935610814,24.12061046809,https://tursib.ro/statii/4083,0,
4084,Piata Iancu De Hunedoara 1,,45.785842035762,24.115874022245,https://tursib.ro/statii/4084,0,
4085,Piata Iancu De Hunedoara 2,,45.785792469673,24.11565810442,https://tursib.ro/statii/4085,0,
4086,Lidl,,45.79325377421,24.130205065012,https://tursib.ro/statii/4086,0,
4087,Lidl Sos. Alba Iulia 2,,45.793358737341,24.13013163954,https://tursib.ro/statii/4087,0,
4088,Scoala Generala Nr.10 / 1,Strada Eduard Albert Bielz,45.78924153303,24.118322040886,https://tursib.ro/statii/4088,0,
4089,Scoala Generala Nr.10 / 2,Strada Eduard Albert Bielz,45.789198399137,24.118222296238,https://tursib.ro/statii/4089,0,
4090,Atlanta,,45.795262299436,24.085520803928,https://tursib.ro/statii/4090,0,
4100,Ambient 2,,45.795385024713,24.105079472065,https://tursib.ro/statii/4100,0,
4101,Ambient 3,,45.795043029602,24.102430120111,https://tursib.ro/statii/4101,0,
4102,Ambient 1,Soseaua Alba Iulia,45.792735968784,24.110945798457,https://tursib.ro/statii/4102,0,
4103,Brandl 1,,45.795192404348,24.109042771161,https://tursib.ro/statii/4103,0,
4104,Brandl 2,,45.795730056615,24.108962975442,https://tursib.ro/statii/4104,0,
4105,Turda 1,,45.794222980825,24.096984900534,https://tursib.ro/statii/4105,0,
4106,Turda 2,,45.79423712373,24.09684676677,https://tursib.ro/statii/4106,0,
4107,Phoenix M.p. 1,,45.792892129121,24.089096188545,https://tursib.ro/statii/4107,0,
4108,Siemens,,45.792854725487,24.0942299366,https://tursib.ro/statii/4108,0,
4109,Kendrion,,45.796677247034,24.083958417177,https://tursib.ro/statii/4109,0,
4110,Aeroport 1,Soseaua Alba Iulia,45.790135881636,24.092917665839,https://tursib.ro/statii/4110,0,
4111,Aeroport 2,Soseaua Alba Iulia,45.790238279019,24.092807024717,https://tursib.ro/statii/4111,0,
4113,Biomin,,45.797016660808,24.086996354163,https://tursib.ro/statii/4113,0,
4114,Phoenix M.p. 2,,45.794142097367,24.088565781713,https://tursib.ro/statii/4114,0,
4115,Joyson,,45.792643862033,24.093302898109,https://tursib.ro/statii/4115,0,
4117,Harting 1,,45.798756240825,24.086230583489,https://tursib.ro/statii/4117,0,
4118,Vama 2,Soseaua Alba Iulia,45.790793746473,24.096976518631,https://tursib.ro/statii/4118,0,
4119,Metro,Soseaua Alba Iulia,45.792368475965,24.109000861645,https://tursib.ro/statii/4119,0,
4120,RAR,Soseaua Alba Iulia,45.788939595082,24.08361710608,https://tursib.ro/statii/4120,0,
4171,Distributiei,,45.796780567424,24.134106338024,https://tursib.ro/statii/4171,0,
4172,Autogarii,,45.795416582598,24.131246097386,https://tursib.ro/statii/4172,0,
4173,Piata Cibin 2,Strada RÃ¢ului,45.79972523487,24.143489375711,https://tursib.ro/statii/4173,0,
4174,Metalurgiștilor,,45.796536057776,24.137734025717,https://tursib.ro/statii/4174,0,
4175,Autogarii 1,,45.797915676558,24.131464362145,https://tursib.ro/statii/4175,0,
4180,Monaco,,45.798908176839,24.082689732313,https://tursib.ro/statii/4180,0,
4181,Turnisor,,45.793668248855,24.122594967485,https://tursib.ro/statii/4181,0,
4182,AUMOVIO,,45.798309897168,24.077847339213,https://tursib.ro/statii/4182,0,
4183,Simpa 1,,45.79196568048,24.105752035976,https://tursib.ro/statii/4183,0,
4184,Simpa 2,Soseaua Alba Iulia,45.791791516702,24.10423591733,https://tursib.ro/statii/4184,0,
4185,SNR Rulmenti,,45.793519337564,24.077387340367,https://tursib.ro/statii/4185,0,
4186,Vama 1,Soseaua Alba Iulia,45.790634774872,24.096356928349,https://tursib.ro/statii/4186,0,
4187,Bosch,,45.793558727795,24.122823793441,https://tursib.ro/statii/4187,0,
4188,Sos. Alba Iulia Vest,Soseaua Alba Iulia,45.789478476608,24.087542518973,https://tursib.ro/statii/4188,0,
4189,Gradinita AUMOVIO,,45.798808834107,24.081712067127,https://tursib.ro/statii/4189,0,
4200,Marquardt,,45.797479377564,24.089934881777,https://tursib.ro/statii/4200,0,
4201,Harting 2,,45.799388525667,24.086664430797,https://tursib.ro/statii/4201,0,
4202,Ifm - Bilstein,,45.790972588983,24.077703505755,https://tursib.ro/statii/4202,0,
4203,Lyon,,45.794285630359,24.078991301358,https://tursib.ro/statii/4203,0,
5010,Calea Dumbravii 1,,45.770388374341,24.13840726018,https://tursib.ro/statii/5010,0,
5011,Muzeul Astra,Calea Dumbravii,45.753777134225,24.115953147411,https://tursib.ro/statii/5011,0,
5012,Dumbrava 2,"Calea Dumbravii, Zoo",45.760370950936,24.126373529434,https://tursib.ro/statii/5012,0,
5013,Agentia Tursib,Calea Dumbravii,45.772951497861,24.140562415123,https://tursib.ro/statii/5013,0,
5016,Calea Dumbravii 2,,45.769929993121,24.137422889471,https://tursib.ro/statii/5016,0,
5017,Cimitirul Eroilor 1,Calea Dumbravii,45.765815619152,24.133060276508,https://tursib.ro/statii/5017,0,
5018,Cimitirul Eroilor 2,Calea Dumbravii,45.765898180913,24.1330056265,https://tursib.ro/statii/5018,0,
5019,Dumbrava 1,"Calea Dumbravii, Hilton",45.760055172881,24.125936329365,https://tursib.ro/statii/5019,0,
5050,Theodor Mihaly 1,Calea Poplacii,45.770473501868,24.125590324402,https://tursib.ro/statii/5050,0,
5051,Spitalul Militar,Bld. Victoriei,45.783781732679,24.138802886009,https://tursib.ro/statii/5051,0,
5052,Bazin Olimpia,Bld. Victoriei,45.787382069598,24.141410999,https://tursib.ro/statii/5052,0,
5053,Bulevardul Victoriei,,45.779421925222,24.136197455227,https://tursib.ro/statii/5053,0,
5054,Parcul Sub Arini,Bld. Victoriei,45.783573173016,24.138741865754,https://tursib.ro/statii/5054,0,
5055,Bazin Olimpia 2,Bld. Victoriei,45.786396611828,24.140423946083,https://tursib.ro/statii/5055,0,
5056,Scoala Militara 1,Bld. Victoriei,45.779015762547,24.135954715312,https://tursib.ro/statii/5056,0,
5057,Theodor Mihaly 2,Calea Poplacii,45.770930007704,24.126101285219,https://tursib.ro/statii/5057,0,
5058,Valea Aurie 1,,45.768092220788,24.124909043312,https://tursib.ro/statii/5058,0,
5059,Valea Aurie 2,,45.768129173284,24.125992655754,https://tursib.ro/statii/5059,0,
5060,Valea Aurie 3,,45.768287273561,24.125605076551,https://tursib.ro/statii/5060,0,
5081,Penny,Soseaua Alba Iulia,45.79257747027,24.134986773133,https://tursib.ro/statii/5081,0,
5082,Kaufland 1,Soseaua Alba Iulia,45.792904752842,24.133734181523,https://tursib.ro/statii/5082,0,
5090,Vasile Milea 1,,45.781199933562,24.164791479707,https://tursib.ro/statii/5090,0,
5091,Calea Cisnadiei,,45.774614658792,24.148517847061,https://tursib.ro/statii/5091,0,
5093,Dima 2,,45.776144012159,24.144196808338,https://tursib.ro/statii/5093,0,
5094,Piata Rahova 1,,45.77699659676,24.1570238024,https://tursib.ro/statii/5094,0,
5095,Aleea Seviș,,45.774835178234,24.15356291458,https://tursib.ro/statii/5095,0,
5096,Piata Rahova 2,,45.77853289979,24.159201085568,https://tursib.ro/statii/5096,0,
5098,Piata Rahova 3,,45.778036821178,24.157279450446,https://tursib.ro/statii/5098,0,
5103,Litovoi Voda,,45.781617537503,24.132590889931,https://tursib.ro/statii/5103,0,
5104,Strand 1,,45.790691817675,24.134071469307,https://tursib.ro/statii/5104,0,
5105,Strand 2,,45.790786265467,24.134315550327,https://tursib.ro/statii/5105,0,
5106,Transilvaniei,,45.790752133363,24.138838425279,https://tursib.ro/statii/5106,0,
5107,Parcul Strand 2,,45.781838263071,24.131813049316,https://tursib.ro/statii/5107,0,
5108,Dimitrie Cantemir,,45.779869940031,24.128792881966,https://tursib.ro/statii/5108,0,
5109,Sacel 1,,45.777719155512,24.126470088959,https://tursib.ro/statii/5109,0,
5110,Sacel 2,,45.779749752695,24.130990281701,https://tursib.ro/statii/5110,0,
5111,Cedonia,,45.780775779436,24.157253466547,https://tursib.ro/statii/5111,0,
5112,Luptei,,45.782550938811,24.162435829639,https://tursib.ro/statii/5112,0,
5113,Miraslau,,45.786018789947,24.158539921045,https://tursib.ro/statii/5113,0,
5114,Mol,Soseaua Alba Iulia,45.79236099517,24.14006922394,https://tursib.ro/statii/5114,0,
5115,Peco Milea,,45.782651947234,24.165193140507,https://tursib.ro/statii/5115,0,
5116,Vasile Milea 2,,45.781574514621,24.16567325592,https://tursib.ro/statii/5116,0,
5141,Siretului 1,Strada Siretului,45.771999694756,24.140249937773,https://tursib.ro/statii/5141,0,
5142,Siretului 2,Strada Siretului,45.771971163798,24.140463173389,https://tursib.ro/statii/5142,0,
5143,Ciresica 1,Strada Siretului,45.772530087286,24.147699102759,https://tursib.ro/statii/5143,0,
5144,Ciresica 2,Strada Siretului,45.772549965215,24.147492237389,https://tursib.ro/statii/5144,0,
5145,Mihai Viteazu,,45.779128235064,24.155643805862,https://tursib.ro/statii/5145,0,
5150,Aron Pumnul,Calea Cisnadiei,45.775614589379,24.148237556219,https://tursib.ro/statii/5150,0,
5151,Sala Transilvania,Centrul de afaceri,45.783493910787,24.146231934428,https://tursib.ro/statii/5151,0,
5152,Alexandru Vlahuță,,45.778304619996,24.140283884481,https://tursib.ro/statii/5152,0,
5155,Scoala De Înot,,45.786431681799,24.147370029241,https://tursib.ro/statii/5155,0,
5156,Justitiei,,45.789003185711,24.144483469427,https://tursib.ro/statii/5156,0,
5171,Bloc 1 Mihai Viteazu,,45.781807398955,24.14981125854,https://tursib.ro/statii/5171,0,
5172,Bloc 9 Mihai Viteazu,Bld. Mihai Viteazu,45.780094881391,24.153162762523,https://tursib.ro/statii/5172,0,
5175,Primăvara,Bld. Mihai Viteazu,45.78028568333,24.1532599926,https://tursib.ro/statii/5175,0,
5177,Lomonosov,Calea Dumbravii,45.785746644381,24.148897379637,https://tursib.ro/statii/5177,0,
5178,Mondex,Strada Malului,45.795682486287,24.136254955083,https://tursib.ro/statii/5178,0,
5179,Nicolae Iorga,,45.778083938898,24.149724841118,https://tursib.ro/statii/5179,0,
5210,Piata Aurel Vlaicu 1,,45.78321228346,24.148227497935,https://tursib.ro/statii/5210,0,
5211,Anton Pann,Calea Dumbravii,45.779434435079,24.145340099931,https://tursib.ro/statii/5211,0,
5213,CEC,Calea Dumbravii,45.786769755183,24.149397611618,https://tursib.ro/statii/5213,0,
5215,Dima 1,Calea Dumbravii,45.776702426147,24.143288880587,https://tursib.ro/statii/5215,0,
5250,Scoala Militara 2,,45.778791050665,24.134151935577,https://tursib.ro/statii/5250,0,
5251,Calea Poplacii,,45.778342091853,24.13362890482,https://tursib.ro/statii/5251,0,
5252,Piata Sadu 1,Calea Poplacii,45.773023525543,24.128390550613,https://tursib.ro/statii/5252,0,
5253,Piata Sadu 2,Calea Poplacii,45.773631547723,24.128886759281,https://tursib.ro/statii/5253,0,
5254,Piata Talmaciu 2,Calea Poplacii,45.776065440898,24.131359755993,https://tursib.ro/statii/5254,0,
5255,Piata Talmaciu 1,Calea Poplacii,45.77551029437,24.130863547325,https://tursib.ro/statii/5255,0,
5258,Scoala Generala Nr.16/ 1,Strada Argesului,45.776443330235,24.14100497961,https://tursib.ro/statii/5258,0,
5301,Shopping City,,45.777309472864,24.171312600374,https://tursib.ro/statii/5301,0,
5410,Valea Sapunului,,45.781255115449,24.167580977082,https://tursib.ro/statii/5410,0,
5511,Bârsei,Strada Maramuresului,45.784587088313,24.132895823568,https://tursib.ro/statii/5511,0,
5512,Biserica Strand,Strada Maramuresului,45.788585637092,24.133014678955,https://tursib.ro/statii/5512,0,
5514,Hategului,Strada Maramuresului,45.784624848206,24.132883921266,https://tursib.ro/statii/5514,0,
5515,Maramuresului,,45.788657878371,24.132972434163,https://tursib.ro/statii/5515,0,
5516,Kaufland 2,Strada Malului,45.793751003153,24.133013337851,https://tursib.ro/statii/5516,0,
9100,Um Poplacii,,45.76838643682,24.122794121504,https://tursib.ro/statii/9100,0,
9101,Uzina De Apa,,45.758495436985,24.110965579748,https://tursib.ro/statii/9101,0,
9201,Paltinis,,45.65444875684,23.931481540203,https://tursib.ro/statii/9201,0,
9202,Paltinis 1 C (Arena Platos),,45.675442884676,23.934745118022,https://tursib.ro/statii/9202,0,
9203,Paltinis 2 C (Centrul de Informare),,45.679066632874,23.939752383158,https://tursib.ro/statii/9203,0,
9204,Paltinis 3 C (Arka Park),,45.688692686334,23.986533209682,https://tursib.ro/statii/9204,0,
9205,Paltinis 3 U (Arka Park),,45.688666675374,23.985500559211,https://tursib.ro/statii/9205,0,
9206,Paltinis 2 U (Centrul de Informare),,45.679172190407,23.93978331238,https://tursib.ro/statii/9206,0,
9207,Paltinis 1 U (Arena Platos),,45.675363403313,23.934576809406,https://tursib.ro/statii/9207,0,
9223,Podului 1,,45.791290296027,24.208140000701,https://tursib.ro/statii/9223,0,
9224,Podului 2,,45.792292732869,24.206890761852,https://tursib.ro/statii/9224,0,
9225,Neculce 1,,45.794255474436,24.14031162858,https://tursib.ro/statii/9225,0,
9227,Autogarii 2,,45.797826850894,24.131574332714,https://tursib.ro/statii/9227,0,
10124,Oncesti,,45.661080310256,23.92505094409,https://tursib.ro/statii/10124,0,
10224,Mai - Curmatura 1,,45.709916908937,24.024344980717,https://tursib.ro/statii/10224,0,
12023,Tribunei,,45.794156824711,24.147583767772,https://tursib.ro/statii/12023,0,
20124,Castelnor 1,,45.684071,23.962764,https://tursib.ro/statii/20124,0,
20221,Tineretului 1,,45.814044361462,24.129966180772,https://tursib.ro/statii/20221,0,
20222,Tiglarilor 1,,45.812442610621,24.133815653622,https://tursib.ro/statii/20222,0,
20223,Tiglarilor 2,,45.812271665676,24.134246651083,https://tursib.ro/statii/20223,0,
20224,Tineretului 2,,45.813290200019,24.131883541122,https://tursib.ro/statii/20224,0,
20225,Schitul Paltinis 1,,45.667646412239,23.937744498253,https://tursib.ro/statii/20225,0,
20226,Schitul Paltinis 2,,45.666780910836,23.937877267599,https://tursib.ro/statii/20226,0,
20231,IFM,,45.799711443975,24.089000970125,https://tursib.ro/statii/20231,0,
22023,Valea Aurie 4,,45.768059,24.126522,https://tursib.ro/statii/22023,0,
30124,Rășinari 1,,45.70507,24.069131,https://tursib.ro/statii/30124,0,
30224,Tropinii Noi 1,,45.728087,24.087893,https://tursib.ro/statii/30224,0,
40124,Rășinari 2,,45.708846,24.062188,https://tursib.ro/statii/40124,0,
40224,Tropinii Noi 2,,45.726443,24.086272,https://tursib.ro/statii/40224,0,
50124,Castelnor 2,,45.684357,23.96291,https://tursib.ro/statii/50124,0,
50224,Mai - Curmatura 2,,45.711647,24.021079,https://tursib.ro/statii/50224,0,
